City_ID_No.,City,Country,Lat.,Long.,Temperature,Humidity,Cloudiness,Wind Speed,Date
0,malchevskaya,RU,49.06,40.36,64.76,70,27,3.96,1595286660
1,mataura,NZ,-46.19,168.86,39.0,83,76,3.0,1595286661
2,hervey bay,AU,-25.3,152.85,60.01,82,100,5.99,1595286662
3,hilo,US,19.73,-155.09,84.2,58,1,6.93,1595286432
4,vanimo,PG,-2.67,141.3,82.18,73,66,7.18,1595286665
5,puerto del rosario,ES,28.5,-13.86,73.4,78,40,18.34,1595286666
6,albany,US,42.6,-73.97,88.0,47,81,7.65,1595286667
7,barrow,US,71.29,-156.79,35.6,80,75,6.93,1595286595
8,severo-kurilsk,RU,50.68,156.12,53.44,76,7,3.69,1595286670
9,thompson,CA,55.74,-97.86,75.2,41,75,9.17,1595286671
10,rikitea,PF,-23.12,-134.97,68.34,58,93,12.21,1595286676
11,bredasdorp,ZA,-34.53,20.04,60.8,87,16,6.93,1595286677
12,east wenatchee bench,US,47.43,-120.28,93.99,20,1,8.05,1595286678
13,porto novo,BJ,6.5,2.6,77.0,94,40,6.93,1595286679
14,kodiak,US,57.79,-152.41,73.4,46,1,14.99,1595286648
15,saint anthony,US,45.02,-93.22,82.4,39,1,6.67,1595286668
16,punta arenas,CL,-53.15,-70.92,32.0,96,75,6.93,1595286595
17,todos santos,MX,23.45,-110.22,78.01,79,10,3.0,1595286685
18,cape town,ZA,-33.93,18.42,50.0,93,0,1.12,1595286425
19,port alfred,ZA,-33.59,26.89,58.48,72,0,5.28,1595286687
20,osa,RU,57.28,55.46,63.28,95,100,8.77,1595286688
21,port blair,IN,11.67,92.75,80.73,78,100,4.23,1595286432
22,sechura,PE,-5.56,-80.82,66.99,70,6,18.37,1595286690
23,mananara,MG,-16.17,49.77,65.64,89,3,7.83,1595286425
24,yar-sale,RU,66.83,70.83,57.79,64,93,7.0,1595286692
25,georgetown,MY,5.41,100.34,78.8,94,20,2.24,1595286688
26,hirado,JP,33.36,129.55,82.4,88,75,4.7,1595286695
27,busselton,AU,-33.65,115.33,51.01,66,61,15.03,1595286619
28,esperance,AU,-33.87,121.9,46.4,81,58,8.05,1595286643
29,baiyin,CN,36.56,104.21,64.99,100,89,2.24,1595286699
30,biak,ID,-0.91,122.88,77.45,80,28,5.08,1595286493
31,geraldton,AU,-28.77,114.6,48.2,76,0,16.11,1595286635
32,hohhot,CN,40.81,111.65,64.4,68,77,4.47,1595286691
33,jamestown,US,42.1,-79.24,78.01,50,1,13.87,1595286703
34,tiburon,US,37.87,-122.46,72.0,100,6,5.01,1595286704
35,saint-francois,FR,46.42,3.91,72.0,64,37,3.85,1595286705
36,kamenka,RU,51.32,42.77,63.0,81,20,5.03,1595286706
37,batagay-alyta,RU,67.8,130.41,68.79,74,100,0.74,1595286708
38,alugan,PH,12.22,125.48,83.48,81,99,2.86,1595286709
39,bambous virieux,MU,-20.34,57.76,69.01,72,75,9.17,1595286710
40,lonavale,IN,18.75,73.42,82.4,94,75,6.93,1595286711
41,khuzhir,RU,53.19,107.34,53.65,68,93,1.01,1595286712
42,douentza,ML,15.0,-2.95,91.35,37,4,10.51,1595286713
43,dayong,CN,25.02,118.29,82.4,88,69,4.47,1595286714
44,xam nua,LA,20.42,104.04,67.66,94,100,1.16,1595286423
45,khandyga,RU,62.67,135.6,75.04,48,79,10.04,1595286716
46,klaksvik,FO,62.23,-6.59,48.2,93,39,2.24,1595286654
47,yulara,AU,-25.24,130.99,48.2,93,90,9.17,1595286718
48,komsomolskiy,UZ,40.43,71.72,73.4,40,35,9.17,1595286535
49,oussouye,SN,12.48,-16.55,82.4,83,40,6.93,1595286721
50,barguzin,RU,53.62,109.62,55.27,58,0,4.79,1595286722
51,atuona,PF,-9.8,-139.03,80.1,78,52,15.41,1595286723
52,dikson,RU,73.51,80.55,39.83,95,100,13.44,1595286724
53,ushuaia,AR,-54.8,-68.3,28.4,100,2,2.98,1595286616
54,ponta do sol,PT,32.67,-17.1,71.6,64,40,10.29,1595286726
55,kapaa,US,22.08,-159.32,82.4,69,90,14.99,1595286573
56,darnah,LY,32.77,22.64,74.55,75,0,18.03,1595286728
57,weihai,CN,37.5,122.11,74.1,77,45,3.11,1595286729
58,swan river,CA,52.11,-101.27,69.82,68,88,8.05,1595286730
59,asau,RO,46.43,26.4,57.0,95,0,4.59,1595286677
60,butaritari,KI,3.07,172.79,82.94,68,41,5.08,1595286623
61,camacha,PT,33.08,-16.33,69.8,73,20,21.92,1595286612
62,kruisfontein,ZA,-34.0,24.73,59.58,89,97,4.59,1595286735
63,zelenoborskiy,RU,66.84,32.36,58.62,75,70,7.09,1595286736
64,san patricio,MX,19.22,-104.7,86.0,84,40,17.22,1595286737
65,bluff,NZ,-46.6,168.33,39.0,83,93,3.0,1595286738
66,kahului,US,20.89,-156.47,89.6,46,40,24.16,1595286727
67,nanortalik,GL,60.14,-45.24,48.99,64,2,1.34,1595286740
68,east london,ZA,-33.02,27.91,63.07,41,0,6.08,1595286742
69,linares,CL,-35.85,-71.6,48.27,87,99,5.64,1595286743
70,berlevag,NO,70.86,29.09,56.66,87,100,7.67,1595286744
71,tuktoyaktuk,CA,69.45,-133.04,42.8,81,90,9.17,1595286513
72,faya,SA,18.39,42.45,68.0,72,72,6.62,1595286746
73,castro,BR,-24.79,-50.01,56.16,85,0,4.38,1595286747
74,lukovetskiy,RU,64.3,41.92,53.6,87,0,4.47,1595286748
75,zabid,YE,14.2,43.32,88.93,45,56,11.25,1595286749
76,lagoa,PT,39.05,-27.98,68.86,73,2,5.75,1595286662
77,alofi,NU,-19.06,-169.92,82.4,83,75,10.29,1595286587
78,khatanga,RU,71.97,102.5,51.93,68,100,4.36,1595286752
79,frontera,MX,26.93,-101.45,87.01,56,50,12.26,1595286754
80,verkhoyansk,RU,67.54,133.38,77.36,59,82,3.44,1595286755
81,codrington,AU,-38.27,141.97,50.95,81,97,5.55,1595286624
82,urucui,BR,-7.23,-44.56,80.15,40,3,6.85,1595286758
83,mayskiy,RU,47.69,40.1,66.2,77,44,6.71,1595286759
84,marovoay,MG,-16.1,46.63,63.73,66,0,7.0,1595286760
85,maniitsoq,GL,65.42,-52.9,48.83,91,100,6.2,1595286663
86,lorengau,PG,-2.02,147.27,84.47,66,24,7.47,1595286762
87,tacuarembo,UY,-31.73,-55.98,68.02,80,100,8.21,1595286581
88,avarua,CK,-21.21,-159.78,78.8,74,88,19.46,1595286766
89,ancud,CL,-41.87,-73.82,48.2,81,89,3.36,1595286767
90,hasaki,JP,35.73,140.83,73.0,100,75,3.36,1595286768
91,belmonte,BR,-15.86,-38.88,75.2,73,40,10.29,1595286769
92,pindushi,RU,62.92,34.58,59.07,72,97,0.69,1595286770
93,nuevitas,CU,21.55,-77.26,73.4,100,67,13.87,1595286771
94,sorland,NO,67.67,12.69,53.71,77,79,7.25,1595286772
95,ribeira grande,PT,38.52,-28.7,69.64,72,96,3.4,1595286773
96,port lincoln,AU,-34.73,135.87,52.25,73,23,4.41,1595286774
97,cravo norte,CO,6.3,-70.2,73.62,95,100,2.33,1595286775
98,lexington park,US,38.27,-76.45,95.0,52,40,8.05,1595286758
99,mar del plata,AR,-38.0,-57.56,51.8,100,90,20.8,1595286779
100,ballina,AU,-28.87,153.57,55.99,71,87,8.05,1595286780
101,kaitangata,NZ,-46.28,169.85,50.09,70,100,6.24,1595286679
102,atbasar,KZ,51.8,68.33,67.89,66,58,6.02,1595286782
103,kattivakkam,IN,13.22,80.32,82.4,88,40,4.7,1595286783
104,cobija,BO,-11.03,-68.77,79.9,61,52,2.37,1595286784
105,mount gambier,AU,-37.83,140.77,44.6,100,90,6.93,1595286785
106,hermanus,ZA,-34.42,19.23,59.0,83,0,5.99,1595286786
107,nsanje,MW,-16.92,35.26,61.41,89,4,2.42,1595286787
108,yellowknife,CA,62.46,-114.35,75.99,56,40,8.05,1595286642
109,vaini,TO,-21.2,-175.2,75.2,64,0,9.17,1595286513
110,hithadhoo,MV,-0.6,73.08,83.82,78,95,15.39,1595286791
111,char bhadrasan,BD,23.32,90.22,78.8,88,75,11.41,1595286792
112,nazarovo,RU,56.01,90.39,60.24,93,75,3.51,1595286793
113,sibiti,CG,-3.68,13.35,66.69,91,32,2.59,1595286794
114,labuhan,ID,-6.88,112.21,77.27,88,24,7.27,1595286795
115,pangnirtung,CA,66.15,-65.71,46.4,93,75,14.99,1595286667
116,cedral,MX,23.8,-100.73,81.52,31,87,12.41,1595286797
117,vardo,NO,70.37,31.11,58.73,82,99,5.64,1595286799
118,puerto ayora,EC,-0.74,-90.35,71.01,85,93,7.0,1595286801
119,high level,CA,58.52,-117.14,75.2,60,75,3.36,1595286802
120,anan,JP,33.92,134.65,78.8,94,75,3.36,1595286803
121,naze,JP,28.37,129.48,82.4,88,40,2.24,1595286805
122,boke,GN,10.94,-14.3,75.38,91,100,5.41,1595286806
123,broome,US,42.25,-75.83,82.0,47,1,8.05,1595286807
124,san cristobal,VE,7.77,-72.22,87.8,48,40,23.04,1595286642
125,ahipara,NZ,-35.17,173.17,60.22,87,69,13.98,1595286809
126,egvekinot,RU,66.32,-179.17,50.61,60,70,2.82,1595286810
127,qaanaaq,GL,77.48,-69.36,48.2,71,99,1.43,1595286629
128,mirnyy,RU,62.54,113.96,55.4,100,90,6.71,1595286814
129,faanui,PF,-16.48,-151.75,77.56,81,39,25.61,1595286621
130,sukumo,JP,32.93,132.73,83.12,72,100,4.07,1595286817
131,beringovskiy,RU,63.05,179.32,46.58,77,30,11.9,1595286806
132,nago,JP,26.59,127.98,84.2,89,75,3.36,1595286819
133,grand gaube,MU,-20.01,57.66,69.01,58,70,5.01,1595286820
134,auki,SB,-8.77,160.7,83.28,74,7,7.02,1595286821
135,torbay,CA,47.67,-52.73,70.0,77,75,16.11,1595286822
136,saint-pierre,RE,-21.34,55.48,66.2,68,90,11.41,1595286823
137,touros,BR,-5.2,-35.46,73.4,100,75,4.7,1595286826
138,adrar,MR,20.5,-10.07,95.58,20,28,1.81,1595286828
139,bethel,US,41.37,-73.41,90.0,45,1,5.82,1595286829
140,ranong,TH,9.97,98.63,79.2,81,100,2.33,1595286831
141,marawi,PH,8.0,124.29,77.0,87,68,4.0,1595286720
142,bentiu,SS,9.23,29.83,70.63,84,44,2.08,1595286833
143,la sarre,CA,48.8,-79.2,60.37,74,89,5.1,1595286834
144,lima,PE,-12.04,-77.03,62.6,72,40,10.29,1595286760
145,clyde river,CA,70.47,-68.59,44.6,93,90,13.87,1595286836
146,manzhouli,CN,49.6,117.43,58.82,56,5,11.86,1595286837
147,stykkisholmur,IS,65.08,-22.73,48.51,79,9,3.56,1595286839
148,chokurdakh,RU,70.63,147.92,77.43,39,73,14.36,1595286840
149,rangapara,IN,26.82,92.65,75.92,94,100,5.95,1595286841
150,saldanha,ZA,-33.01,17.94,50.0,81,0,1.12,1595286679
151,gat,IL,31.61,34.76,80.01,66,0,1.88,1595286689
152,husavik,IS,66.04,-17.34,48.2,81,64,4.7,1595286830
153,salamiyah,SY,35.01,37.05,72.28,58,0,7.54,1595286845
154,ramsar,IR,36.92,50.64,85.42,47,0,3.47,1595286846
155,nome,US,64.5,-165.41,55.99,93,90,8.05,1595286847
156,mayumba,GA,-3.43,10.66,70.83,90,99,1.66,1595286848
157,longyearbyen,SJ,78.22,15.64,46.4,87,75,3.36,1595286764
158,provideniya,RU,64.38,-173.3,50.0,81,90,11.18,1595286595
159,iqaluit,CA,63.75,-68.51,44.6,100,75,4.7,1595286594
160,airai,TL,-8.93,125.41,58.06,77,63,2.89,1595286853
161,cayenne,GF,4.93,-52.33,78.8,88,20,2.24,1595286854
162,saskylakh,RU,71.92,114.08,56.32,52,72,7.09,1595286855
163,kachug,RU,53.96,105.88,52.09,64,99,1.28,1595286856
164,chumikan,RU,54.72,135.31,52.52,97,100,21.27,1595286857
165,pokosnoye,RU,55.53,101.05,53.31,69,99,5.44,1595286858
166,kyabe,TD,9.45,18.94,70.57,91,84,0.54,1595286859
167,mogadishu,SO,2.04,45.34,77.0,82,69,21.45,1595286860
168,ketchikan,US,55.34,-131.65,59.0,100,90,17.22,1595286610
169,pisco,PE,-13.7,-76.22,62.6,82,20,6.93,1595286635
170,constitucion,CL,-35.33,-72.42,53.89,80,95,7.09,1595286729
171,te anau,NZ,-45.42,167.72,44.6,87,91,3.15,1595286865
172,dhidhdhoo,MV,6.88,73.1,82.69,77,100,18.52,1595286840
173,cockburn town,TC,21.46,-71.14,83.41,77,8,19.95,1595286844
174,hofn,IS,64.25,-15.21,51.87,77,57,1.74,1595286868
175,tingi,TZ,-11.3,35.03,54.37,68,0,3.06,1595286869
176,itarema,BR,-2.92,-39.92,77.47,81,83,15.43,1595286870
177,new norfolk,AU,-42.78,147.06,50.0,89,87,4.0,1595286871
178,aksarka,RU,66.56,67.8,53.67,74,33,8.7,1595286872
179,tiksi,RU,71.69,128.87,45.9,90,100,10.58,1595286874
180,togur,RU,58.36,82.83,56.07,96,89,10.31,1595286875
181,cozumel,MX,20.51,-86.95,77.0,88,75,6.93,1595286678
182,kungurtug,RU,50.6,97.52,55.38,61,37,1.12,1595286877
183,vieques,PR,18.43,-65.83,84.2,74,40,13.87,1595286878
184,prince rupert,CA,54.32,-130.32,60.8,100,90,9.17,1595286879
185,nikolskoye,RU,59.7,30.79,62.6,82,94,4.47,1595286625
186,verkh-usugli,RU,52.7,115.17,52.68,60,0,11.77,1595286881
187,upernavik,GL,72.79,-56.15,48.99,52,1,9.17,1595286853
188,zatoka,UA,46.07,30.47,68.0,82,20,8.95,1595286883
189,paka,MY,4.64,103.44,75.2,94,55,1.12,1595286886
190,svetlogorsk,BY,52.63,29.73,59.77,85,8,3.38,1595286887
191,tolaga bay,NZ,-38.37,178.3,58.59,84,75,13.96,1595286888
192,alyangula,AU,-13.85,136.42,71.6,88,80,5.82,1595286890
193,norrtalje,SE,59.76,18.7,66.0,76,98,5.01,1595286891
194,port-cartier,CA,50.03,-66.87,80.6,44,75,21.92,1595286892
195,nueva loja,EC,0.08,-76.88,73.54,86,100,0.54,1595286893
196,rawson,AR,-43.3,-65.1,44.64,79,91,19.1,1595286734
197,semarang,ID,-6.99,110.42,80.6,78,40,5.82,1595286813
198,eldorado,BR,-23.79,-54.28,68.2,65,0,6.02,1595286898
199,cascais,PT,38.7,-9.42,75.99,49,99,13.0,1595286899
200,monte azul,BR,-15.15,-42.87,66.76,67,48,4.43,1595286900
201,kieta,PG,-6.22,155.63,84.61,64,34,4.03,1595286901
202,guerrero negro,MX,27.98,-114.06,85.15,40,7,18.03,1595286662
203,hobart,AU,-42.88,147.33,50.0,71,75,5.82,1595286702
204,susanville,US,40.42,-120.65,96.8,11,1,5.82,1595286904
205,harper,LR,4.38,-7.72,76.62,87,82,10.07,1595286655
206,fomboni,KM,-12.28,43.74,76.44,72,34,19.44,1595286907
207,lumut,MY,4.23,100.63,77.0,94,40,2.24,1595286908
208,mahebourg,MU,-20.41,57.7,68.0,68,75,11.41,1595286910
209,ewo,CG,-0.87,14.82,74.28,79,100,5.86,1595286911
210,ucluelet,CA,48.93,-125.55,72.0,68,5,8.05,1595286814
211,humberto de campos,BR,-2.6,-43.46,76.77,83,77,4.52,1595286914
212,tasiilaq,GL,65.61,-37.64,44.6,87,0,6.93,1595286826
213,qaqortoq,GL,60.72,-46.03,57.2,41,1,8.05,1595286916
214,sinnamary,GF,5.38,-52.95,78.91,84,100,8.72,1595286917
215,flinders,AU,-34.58,150.86,54.0,61,1,7.0,1595286919
216,sambava,MG,-14.27,50.17,68.58,79,77,13.47,1595286920
217,mabaruma,GY,8.2,-59.78,77.49,86,98,4.29,1595286922
218,wanning,CN,18.8,110.4,81.5,84,98,5.39,1595286923
219,qui nhon,VN,13.77,109.23,78.6,81,69,4.03,1595286863
220,arraial do cabo,BR,-22.97,-42.03,71.19,84,0,19.26,1595286925
221,saint-philippe,RE,-21.36,55.77,66.2,63,75,6.93,1595286926
222,mercedes,AR,-34.65,-59.43,59.0,96,100,1.99,1595286927
223,cidreira,BR,-30.18,-50.21,67.32,75,77,6.67,1595286670
224,bilibino,RU,68.05,166.44,70.47,32,6,0.83,1595286929
225,mayo,US,38.89,-76.51,91.4,74,75,13.87,1595286931
226,sayyan,YE,15.17,44.32,61.0,71,93,3.58,1595286932
227,port elizabeth,ZA,-33.92,25.57,55.4,100,75,2.24,1595286787
228,victoria,HK,22.29,114.16,84.0,83,100,3.0,1595286900
229,coquimbo,CL,-29.95,-71.34,57.2,76,13,8.05,1595286932
230,fortuna,US,40.6,-124.16,63.0,77,20,14.99,1595286641
231,roma,US,43.21,-75.46,82.4,51,40,14.99,1595286682
232,bomet,KE,-0.78,35.34,51.4,94,78,3.4,1595286938
233,sakaiminato,JP,35.55,133.23,84.2,83,75,5.82,1595286939
234,linxia,CN,35.6,103.21,59.0,76,75,3.69,1595286940
235,pevek,RU,69.7,170.31,46.53,58,10,3.36,1595286941
236,amapa,BR,1.0,-52.0,72.48,95,98,1.95,1595286942
237,leisure city,US,25.5,-80.43,84.0,78,20,6.93,1595286909
238,ukiah,US,39.15,-123.21,93.2,30,1,6.93,1595286840
239,morondava,MG,-20.28,44.28,65.44,58,0,8.7,1595286947
240,narsaq,GL,60.92,-46.05,57.2,41,3,8.05,1595286948
241,buchanan,LR,5.88,-10.05,77.0,94,75,4.7,1595286949
242,diego de almagro,CL,-26.37,-70.05,51.57,76,100,1.95,1595286950
243,shelburne,CA,44.08,-80.2,73.4,60,75,8.05,1595286951
244,lata,PT,40.16,-8.33,70.0,72,31,5.84,1595286952
245,dunmore east,IE,52.15,-6.99,55.99,79,63,4.0,1595286953
246,ghotki,PK,28.01,69.32,91.4,63,12,9.17,1595286954
247,kyren,RU,51.68,102.14,58.55,70,25,1.7,1595286956
248,kasulu,TZ,-4.58,30.1,66.2,77,5,2.91,1595286957
249,aswan,EG,24.09,32.91,91.62,19,0,13.94,1595286876
250,lebu,CL,-37.62,-73.65,50.97,84,96,11.39,1595286959
251,tsiroanomandidy,MG,-18.77,46.03,52.45,74,4,3.78,1595286960
252,champerico,GT,14.3,-91.92,84.2,74,75,4.7,1595286961
253,grand-santi,GF,4.25,-54.38,74.73,94,99,2.86,1595286962
254,bathsheba,BB,13.22,-59.52,82.4,69,20,19.46,1595286964
255,shahpura,IN,27.38,75.97,84.2,74,40,10.31,1595286965
256,acapulco,MX,16.86,-99.89,86.0,79,90,4.7,1595286813
257,laguna,US,38.42,-121.42,89.01,39,1,11.41,1595286967
258,gondal,IN,21.97,70.8,82.99,10,98,10.04,1595286968
259,kloulklubed,PW,7.04,134.26,82.4,78,75,5.82,1595286969
260,makakilo city,US,21.35,-158.09,89.6,43,20,5.82,1595286970
261,ponta delgada,PT,37.73,-25.67,66.2,77,20,5.82,1595286971
262,richards bay,ZA,-28.78,32.04,58.59,83,0,7.16,1595286972
263,mount isa,AU,-20.73,139.5,62.6,27,38,13.87,1595286831
264,hays,US,30.05,-98.03,97.0,41,70,4.0,1595286975
265,ashington,GB,50.93,-0.39,62.01,3,5,8.28,1595286976
266,morgan city,US,29.7,-91.21,82.0,94,1,5.82,1595286977
267,saint george,US,37.1,-113.58,105.8,10,1,20.8,1595286932
268,sobolevo,RU,54.43,31.9,56.82,92,53,5.1,1595286925
269,san quintin,MX,30.48,-115.95,75.74,51,0,20.62,1595286980
270,marathon,US,44.9,-89.77,73.99,49,40,6.93,1595286981
271,fonte boa,BR,-2.5,-66.27,79.5,71,91,2.21,1595286982
272,hami,CN,42.8,93.45,85.1,23,100,2.8,1595286929
273,prado,BR,-17.34,-39.22,72.12,84,23,8.32,1595286984
274,itacoatiara,BR,-3.14,-58.44,79.72,59,28,1.25,1595286713
275,bengkulu,ID,-3.8,102.27,75.7,88,69,5.41,1595286986
276,jaslo,PL,49.75,21.47,64.0,100,99,3.36,1595286988
277,slavgorodskoye,RU,53.02,78.64,65.01,90,98,8.75,1595286989
278,novaya maka,RU,41.77,48.36,81.9,46,0,3.78,1595286990
279,coihaique,CL,-45.58,-72.07,35.6,85,90,3.36,1595286991
280,gweru,ZW,-19.45,29.82,45.75,95,0,7.34,1595286992
281,ribeira brava,PT,32.65,-17.07,71.6,64,40,10.29,1595286993
282,ghanzi,BW,-21.57,21.78,47.05,50,0,5.55,1595286994
283,rehoboth,NA,-23.32,17.08,47.73,51,0,5.75,1595286869
284,biltine,TD,14.53,20.92,74.26,73,100,2.62,1595286996
285,yablonovo,RU,50.85,37.36,64.4,68,36,4.47,1595286997
286,vao,NC,-22.67,167.48,68.86,62,51,11.86,1595286999
287,luderitz,NA,-26.65,15.16,62.6,33,0,3.36,1595287001
288,constantine,DZ,36.37,6.61,75.2,57,20,6.93,1595287002
289,mendota,US,36.75,-120.38,96.8,22,1,9.17,1595287003
290,hirara,JP,24.8,125.28,86.0,79,20,8.05,1595286980
291,nagato,JP,34.38,131.2,82.99,100,75,2.24,1595287005
292,storforshei,NO,66.4,14.52,51.01,92,100,1.01,1595287006
293,aykhal,RU,66.0,111.5,51.8,93,90,11.18,1595287007
294,tezu,IN,27.92,96.17,74.93,87,100,1.99,1595287008
295,alihe,CN,50.57,123.72,62.44,55,0,6.4,1595287011
296,chaihe,CN,44.77,129.7,66.81,86,4,4.74,1595287012
297,tiarei,PF,-17.53,-149.33,82.4,65,20,4.7,1595287013
298,sinjar,IQ,36.32,41.88,89.13,12,0,18.16,1595287014
299,bida,NG,9.08,6.02,73.85,94,57,5.03,1595287015
300,pingliang,CN,35.54,106.69,65.5,71,65,4.25,1595287016
301,londrina,BR,-23.31,-51.16,73.4,46,0,3.06,1595286729
302,norman wells,CA,65.28,-126.83,64.4,77,90,5.82,1595286734
303,kuah,MY,6.33,99.84,78.8,94,20,4.65,1595287019
304,almaznyy,RU,48.04,40.05,66.2,77,42,6.71,1595287020
305,hambantota,LK,6.12,81.12,79.88,80,100,10.13,1595287022
306,gurupi,BR,-11.73,-49.07,74.98,33,10,5.12,1595287023
307,hay river,CA,60.82,-115.8,69.8,77,40,6.93,1595287024
308,talcahuano,CL,-36.72,-73.12,55.4,87,75,9.17,1595287025
309,sao filipe,CV,14.9,-24.5,76.69,82,45,7.67,1595287026
310,macas,EC,-2.32,-78.12,75.2,57,20,2.24,1595287027
311,yarmouth,US,41.71,-70.23,84.99,74,1,10.29,1595287028
312,bontang,ID,0.13,117.5,76.86,89,49,5.06,1595287029
313,bandarbeyla,SO,9.49,50.81,77.2,73,100,27.31,1595287030
314,albox,ES,37.39,-2.15,73.0,70,21,3.49,1595287031
315,ulundi,ZA,-28.34,31.42,55.08,38,0,4.25,1595287033
316,ilulissat,GL,69.22,-51.1,53.6,50,85,1.12,1595287034
317,saint-augustin,CA,51.23,-58.65,60.76,95,100,12.08,1595287035
318,teguise,ES,29.06,-13.56,73.4,73,40,16.11,1595287036
319,sohbatpur,PK,28.52,68.54,93.7,51,1,14.81,1595287037
320,ostrovnoy,RU,68.05,39.51,61.79,62,25,10.92,1595287038
321,sergeyevka,KZ,53.88,67.42,64.2,92,100,10.22,1595287039
322,diu,IN,20.71,70.98,82.71,80,95,12.1,1595287040
323,mokolo,CM,10.74,13.8,70.18,82,100,4.5,1595287041
324,grenfell,AU,-33.9,148.17,41.05,81,1,2.59,1595287042
325,songkhla,TH,6.83,100.67,75.2,100,90,2.24,1595287044
326,yamada,JP,39.47,141.95,73.53,80,100,7.11,1595287045
327,caravelas,BR,-17.71,-39.25,71.47,86,33,6.55,1595287035
328,nouadhibou,MR,20.93,-17.03,77.0,78,0,3.36,1595287048
329,sioux lookout,CA,50.1,-91.92,73.4,43,40,5.82,1595286954
330,cururupu,BR,-1.83,-44.87,74.39,87,24,1.5,1595287050
331,sitka,US,57.05,-135.33,57.2,93,90,5.82,1595287013
332,lipari,IT,38.47,14.95,75.99,77,0,4.18,1595287053
333,darhan,MN,49.49,105.92,60.19,69,0,2.89,1595287055
334,viedma,AR,-40.81,-63.0,48.0,92,100,1.99,1595287057
335,bibiani,GH,6.46,-2.32,70.3,99,96,2.19,1595287058
336,inyonga,TZ,-6.72,32.07,62.94,55,22,4.52,1595287059
337,katherine,AU,-14.47,132.27,64.4,27,27,10.29,1595287060
338,srednekolymsk,RU,67.45,153.68,77.36,38,52,16.28,1595287062
339,baykit,RU,61.67,96.37,54.19,74,3,1.95,1595287063
340,adeje,ES,28.12,-16.73,75.0,69,0,14.99,1595287065
341,nichinan,JP,31.6,131.37,86.0,70,75,13.87,1595287067
342,veshenskaya,RU,49.63,41.73,65.26,73,36,3.33,1595287068
343,jalu,LY,29.03,21.55,77.25,54,0,10.78,1595287069
344,quatre cocos,MU,-20.21,57.76,69.01,68,75,11.41,1595287070
345,havoysund,NO,71.0,24.66,51.8,100,75,1.12,1595287071
346,tuatapere,NZ,-46.13,167.68,39.0,83,86,3.0,1595286985
347,saint-leu,RE,-21.15,55.28,66.2,63,75,6.93,1595287073
348,lekoni,GA,-1.58,14.26,75.54,68,100,7.31,1595287074
349,rio gallegos,AR,-51.62,-69.22,19.4,100,1,3.36,1595287075
350,chuy,UY,-33.7,-53.46,68.36,82,100,9.35,1595287034
351,omaruru,NA,-21.43,15.93,51.62,45,0,7.63,1595287078
352,mongomo,GQ,1.63,11.31,67.48,99,100,1.07,1595287080
353,bignona,SN,12.81,-16.23,77.0,94,90,6.93,1595287081
354,shingu,JP,33.73,135.98,82.4,74,99,3.36,1595287082
355,lodja,CD,-3.48,23.43,71.64,46,0,1.48,1595287083
356,kenai,US,60.55,-151.26,66.2,63,1,10.29,1595287080
357,benguela,AO,-12.58,13.41,68.04,80,0,5.79,1595287085
358,yurginskoye,RU,56.82,67.39,53.11,83,11,7.05,1595287086
359,vila velha,BR,-20.33,-40.29,75.99,83,75,5.82,1595286871
360,acari,PE,-15.43,-74.62,62.31,65,89,4.92,1595287088
361,asfi,MA,32.3,-9.24,69.03,89,20,5.86,1595287090
362,tabuk,PH,17.42,121.44,77.29,82,9,2.19,1595287092
363,przasnysz,PL,53.02,20.88,63.0,93,75,5.82,1595287093
364,bosaso,SO,11.28,49.18,90.95,40,7,23.87,1595287094
365,vung tau,VN,10.35,107.08,81.37,76,100,1.68,1595287035
366,los llanos de aridane,ES,28.66,-17.92,73.4,69,20,20.8,1595287087
367,rethimnon,GR,35.36,24.47,77.0,94,20,4.76,1595287097
368,severo-yeniseyskiy,RU,60.37,93.04,49.86,99,100,5.61,1595287098
369,berbera,SO,10.44,45.01,91.67,41,35,24.02,1595287099
370,port hardy,CA,50.7,-127.42,62.6,88,40,10.29,1595286883
371,sola,VU,-13.88,167.55,84.2,62,75,8.05,1595287103
372,lavrentiya,RU,65.58,-171.0,46.24,75,100,5.86,1595286864
373,nouakchott,MR,18.09,-15.98,78.8,83,20,10.29,1595287105
374,gloversville,US,43.05,-74.34,80.01,57,40,6.93,1595287106
375,les cayes,HT,18.2,-73.75,82.81,75,78,7.65,1595287108
376,russell,US,32.35,-85.2,96.8,44,1,3.36,1595287070
377,olafsvik,IS,64.89,-23.71,49.48,75,44,3.42,1595287110
378,zarate,AR,-34.1,-59.03,60.01,53,100,11.01,1595287113
379,mogwase,ZA,-25.18,27.27,47.95,47,0,1.01,1595287114
380,uray,RU,60.12,64.78,52.54,82,0,6.22,1595287115
381,simbahan,PH,6.3,120.58,83.03,71,21,4.21,1595287116
382,hastings,GB,50.86,0.57,55.99,83,30,4.88,1595287117
383,whitecourt,CA,54.15,-115.69,75.2,38,75,8.05,1595286916
384,haines junction,CA,60.75,-137.51,66.38,46,75,10.29,1595287119
385,maumere,ID,-8.62,122.21,75.4,76,18,3.67,1595287120
386,tiznit,MA,29.58,-9.5,71.56,64,0,2.21,1595286875
387,seymchan,RU,62.88,152.43,71.35,43,1,7.76,1595287123
388,avera,US,33.19,-82.53,89.6,58,75,5.82,1595286859
389,taloqan,AF,36.74,69.53,77.97,24,68,2.68,1595287126
390,luanda,AO,-8.84,13.23,69.8,88,20,6.93,1595287127
391,zalantun,CN,48.0,122.72,66.96,39,0,5.37,1595287128
392,santa fe,AR,-31.63,-60.7,68.58,71,100,6.64,1595286908
393,springbok,ZA,-29.66,17.89,53.92,36,0,4.36,1595287130
394,ningbo,CN,29.88,121.55,84.99,88,100,2.24,1595287132
395,borovskoy,KZ,53.8,64.15,62.4,95,88,7.16,1595287133
396,vostok,RU,46.49,135.88,59.88,100,100,1.57,1595287030
397,carutapera,BR,-1.2,-46.02,76.64,85,59,6.35,1595287138
398,bubaque,GW,11.28,-15.83,80.85,81,100,14.74,1595286921
399,carsamba,TR,41.2,36.72,77.0,69,75,12.75,1595287141
400,nova bana,SK,48.42,18.64,62.01,100,90,2.44,1595287142
401,indian head,US,38.6,-77.16,93.2,69,90,13.87,1595287143
402,palmer,US,42.16,-72.33,88.0,48,40,13.87,1595287145
403,hilton head island,US,32.22,-80.75,90.0,66,1,8.05,1595287146
404,nishihara,JP,26.18,127.76,84.2,88,40,4.7,1595287078
405,corinth,GR,37.94,22.96,78.01,58,0,1.01,1595287150
406,shache,CN,38.42,77.24,72.79,28,100,4.81,1595287151
407,aklavik,CA,68.22,-135.01,48.2,76,90,8.05,1595287153
408,rosarito,MX,32.33,-117.03,78.01,60,5,10.29,1595287154
409,coahuayana,MX,18.73,-103.68,84.2,70,75,11.41,1595287155
410,singkang,MY,2.1,102.8,77.0,94,20,2.93,1595287157
411,nicoya,CR,10.15,-85.45,87.8,62,75,5.82,1595287158
412,miyako,JP,39.64,141.95,73.56,80,100,7.18,1595287161
413,christchurch,NZ,-43.53,172.63,57.2,62,100,5.82,1595287009
414,launceston,AU,-41.45,147.17,45.0,100,90,6.93,1595287067
415,gravdal,NO,68.12,13.5,52.92,81,92,5.79,1595287165
416,abha,SA,18.22,42.51,66.2,63,87,10.09,1595287167
417,doctor arroyo,MX,23.67,-100.18,78.01,38,59,14.94,1595287168
418,moerai,PF,-22.43,-151.33,69.82,75,65,24.67,1595287169
419,bundaberg,AU,-24.85,152.35,64.99,62,100,6.93,1595287170
420,shimoda,JP,34.67,138.95,77.0,88,75,6.93,1595287171
421,wilmington,US,34.23,-77.94,91.4,55,1,12.75,1595287173
422,belyy yar,RU,53.6,91.39,57.2,87,22,4.47,1595287174
423,ayan,RU,56.45,138.17,52.43,95,100,16.06,1595287109
424,batagay,RU,67.63,134.63,80.38,52,72,4.34,1595287176
425,kurchanskaya,RU,45.22,37.59,73.0,78,75,4.47,1595287177
426,kachiry,KZ,53.07,76.1,64.78,87,100,9.71,1595287178
427,college,US,64.86,-147.8,71.01,56,75,3.36,1595287061
428,carauari,BR,-4.88,-66.9,80.69,71,94,1.7,1595287180
429,okhotsk,RU,59.38,143.3,58.12,85,95,3.04,1595287181
430,moose factory,CA,51.26,-80.61,64.4,68,90,12.75,1595287182
431,wahiawa,US,21.5,-158.02,89.6,48,75,11.41,1595287184
432,tierranueva,MX,21.68,-100.57,75.33,51,64,8.46,1595287186
433,ormara,PK,25.21,64.64,85.24,82,100,17.76,1595287187
434,tabat,ID,-2.63,115.23,73.38,91,0,1.12,1595287188
435,antiguo morelos,MX,22.55,-99.08,97.0,31,3,17.0,1595287189
436,rafai,CF,4.95,23.92,66.76,97,71,1.01,1595287190
437,erzin,TR,36.96,36.2,80.01,88,0,1.1,1595287192
438,gillette,US,44.29,-105.5,80.6,34,90,14.99,1595287193
439,horuphav,DK,54.91,9.9,55.4,87,5,6.93,1595287194
440,lucapa,AO,-8.42,20.74,62.22,32,0,3.4,1595287195
441,inhambane,MZ,-23.86,35.38,66.9,67,81,5.28,1595287197
442,tual,ID,-5.67,132.75,79.3,84,66,18.9,1595287198
443,lompoc,US,34.64,-120.46,69.8,64,1,16.11,1595287199
444,minab,IR,27.15,57.08,91.4,75,8,9.17,1595287202
445,kambove,CD,-10.88,26.6,52.03,70,0,6.35,1595287203
446,bonthe,SL,7.53,-12.51,75.87,92,100,8.14,1595287066
447,dondo,MZ,-19.61,34.74,68.0,94,40,4.7,1595287205
448,okahandja,NA,-21.98,16.92,53.6,27,0,2.24,1595287207
449,oparino,RU,59.85,48.28,59.83,96,95,8.19,1595287208
450,marsh harbour,BS,26.54,-77.06,83.37,77,88,14.36,1595287209
451,nabire,ID,-3.37,135.48,78.48,81,91,3.8,1595287210
452,santa rosa,PH,14.31,121.11,82.0,83,42,4.79,1595287211
453,rocha,UY,-34.48,-54.33,69.48,77,100,6.93,1595287212
454,gourcy,BF,13.22,-2.35,83.3,62,57,11.99,1595287213
455,san vicente,AR,-26.62,-54.13,62.1,83,63,3.58,1595287214
456,seabra,BR,-12.42,-41.77,63.23,79,18,6.87,1595287215
457,lesozavodsk,RU,45.48,133.42,68.29,89,89,6.06,1595287217
458,aleksandrov gay,RU,50.15,48.57,73.81,47,100,4.29,1595287218
459,sabha,LY,27.04,14.43,85.87,29,0,19.86,1595287221
460,parsabad,IR,39.65,47.92,77.0,83,0,2.01,1595287222
461,junction city,US,39.03,-96.83,84.99,78,1,13.87,1595287224
462,kawalu,ID,-7.38,108.21,71.91,93,67,1.59,1595287225
463,mount vernon,US,40.91,-73.84,93.2,34,40,16.11,1595287226
464,gerash,IR,27.67,54.14,79.7,22,11,4.65,1595287228
465,kavieng,PG,-2.57,150.8,84.13,73,78,10.13,1595287229
466,tunceli,TR,39.11,39.55,68.0,34,0,4.7,1595287230
467,cherskiy,RU,68.75,161.3,73.35,35,93,6.71,1595287231
468,buluang,PH,13.31,123.34,81.03,82,79,2.77,1595287232
469,peace river,CA,56.25,-117.29,75.2,53,90,8.05,1595286944
470,plettenberg bay,ZA,-34.05,23.37,59.43,80,35,7.74,1595287234
471,straumen,NO,63.87,11.3,54.0,76,75,14.99,1595287235
472,kupang,ID,-10.17,123.58,74.5,76,28,10.2,1595287101
473,joutseno,FI,61.12,28.51,59.0,93,100,1.12,1595287237
474,hailar,CN,49.2,119.7,61.34,56,1,16.22,1595287238
475,agua verde,MX,22.9,-106.05,88.0,66,75,5.82,1595287240
476,kortkeros,RU,61.81,51.58,57.2,76,0,8.95,1595287242
477,greer,US,34.94,-82.23,86.0,83,75,6.93,1595287006
478,svirsk,RU,53.09,103.33,54.16,66,69,3.91,1595287244
479,talara,PE,-4.58,-81.27,62.67,87,14,16.87,1595287094
480,konstantinovka,RU,49.62,127.98,69.28,49,4,6.82,1595287245
481,kaputa,ZM,-8.47,29.66,65.64,62,3,1.72,1595287248
482,diffa,NE,13.32,12.61,82.53,58,92,13.89,1595287250
483,buraydah,SA,26.33,43.98,91.4,21,0,6.93,1595287251
484,buin,CL,-33.73,-70.75,57.2,66,75,10.29,1595287252
485,beloha,MG,-25.17,45.05,60.84,75,0,11.59,1595287253
486,mehran,IR,33.12,46.16,84.2,13,0,9.17,1595287254
487,firozpur,IN,30.92,74.6,73.4,100,90,16.11,1595287255
488,poronaysk,RU,49.22,143.12,57.96,94,100,8.39,1595287256
489,kolokani,ML,13.57,-8.03,77.05,82,87,4.92,1595287257
490,north platte,US,41.12,-100.77,79.0,75,71,1.99,1595287258
491,katsuura,JP,35.13,140.3,77.0,88,75,1.12,1595287261
492,belaya gora,RU,68.53,146.42,79.7,37,44,8.77,1595287262
493,bijar,IR,35.87,47.61,67.06,44,0,3.47,1595287263
494,de aar,ZA,-30.65,24.01,45.37,43,0,4.0,1595287264
495,cedar city,US,37.68,-113.06,87.8,20,1,12.75,1595287265
496,rio cuarto,AR,-33.13,-64.35,50.0,100,90,9.17,1595287266
497,chapais,CA,49.78,-74.85,60.8,72,90,16.11,1595287021
498,mantua,IT,45.17,10.78,73.99,73,1,5.01,1595287268
499,maraa,BR,-1.83,-65.37,79.12,70,85,1.77,1595287269
500,seoul,KR,37.57,126.98,75.2,83,1,3.36,1595287135
501,marsa matruh,EG,31.35,27.25,75.2,83,0,4.7,1595287272
502,padang,ID,-0.95,100.35,77.9,76,61,5.35,1595287273
503,vestmannaeyjar,IS,63.44,-20.27,50.47,74,0,4.38,1595287274
504,bac lieu,VN,9.29,105.72,79.36,82,100,1.74,1595287275
505,dingle,PH,11.0,122.67,79.66,85,61,4.03,1595287013
506,khandbari,NP,27.37,87.2,71.62,75,100,0.67,1595287277
507,sisimiut,GL,66.94,-53.67,49.71,79,100,1.83,1595287278
508,namatanai,PG,-3.67,152.43,83.55,70,29,5.86,1595287279
509,waingapu,ID,-9.66,120.26,73.53,82,28,7.81,1595287280
510,asarganj,IN,25.15,86.68,79.34,93,100,2.3,1595287281
511,serrinha,BR,-11.66,-39.01,65.59,91,18,7.0,1595287283
512,muros,ES,42.78,-9.06,66.99,76,2,7.0,1595287284
513,carnarvon,AU,-24.87,113.63,51.8,81,0,8.05,1595287285
514,floriano,BR,-6.77,-43.02,79.25,51,33,5.95,1595287286
515,dogondoutchi,NE,13.64,4.03,90.52,43,0,12.28,1595287288
516,yeppoon,AU,-23.13,150.73,62.6,42,94,7.9,1595287289
517,soe,ID,-9.86,124.28,63.88,93,61,5.03,1595287040
518,wuwei,CN,37.93,102.64,69.01,57,100,2.82,1595287292
519,santa maria do para,BR,-1.35,-47.58,73.63,94,53,5.59,1595287295
520,sturgis,US,41.8,-85.42,80.6,57,1,4.7,1595287296
521,nara,JP,34.69,135.8,84.99,79,75,3.36,1595287297
522,mega,ET,4.05,38.3,58.26,75,92,17.27,1595287298
523,port hedland,AU,-20.32,118.57,64.4,45,0,11.41,1595287299
524,olenegorsk,RU,68.15,33.3,61.45,73,53,3.89,1595287300
525,general pico,AR,-35.66,-63.76,56.66,78,98,9.06,1595287301
526,coromandel,BR,-18.47,-47.2,62.01,70,3,3.78,1595287302
527,mae tha,TH,18.46,99.14,78.8,94,40,1.21,1595287303
528,teguldet,RU,57.31,88.17,57.27,98,8,5.86,1595287305
529,itoman,JP,26.12,127.67,84.2,83,40,4.7,1595287306
530,beisfjord,NO,68.38,17.6,53.6,87,100,4.7,1595287307
531,bagdarin,RU,54.43,113.6,50.79,64,85,7.9,1595287308
532,ocala,US,29.19,-82.14,91.0,55,20,10.29,1595287309
533,banda aceh,ID,5.56,95.32,79.59,78,92,1.86,1595287063
534,kristiinankaupunki,FI,62.27,21.38,59.88,88,12,7.47,1595287311
535,payo,ID,-3.75,103.64,71.67,94,43,2.15,1595287312
536,fengzhen,CN,40.44,113.15,71.13,53,98,4.32,1595287313
537,santa isabel do rio negro,BR,-0.41,-65.02,78.22,81,82,3.69,1595287314
538,honiara,SB,-9.43,159.95,80.6,88,40,2.24,1595287196
539,balabac,PH,7.99,117.06,82.96,78,98,9.93,1595287317
540,jiangyou,CN,31.77,104.72,68.45,89,100,5.06,1595287318
541,preobrazheniye,RU,42.9,133.91,67.64,93,98,6.31,1595287319
542,mitsamiouli,KM,-11.38,43.28,76.3,68,89,7.61,1595287320
543,manali,IN,13.17,80.27,82.4,88,40,4.7,1595287321
544,milkovo,RU,54.72,158.62,51.6,85,99,8.41,1595287322
545,ust-koksa,RU,50.27,85.61,56.32,77,100,0.25,1595287323
546,trogir,HR,43.51,16.25,69.8,64,0,5.21,1595287324
547,kuusankoski,FI,60.91,26.62,60.8,93,98,1.12,1595287325
548,bauchi,NG,10.5,10.0,72.07,88,98,4.27,1595287327
549,cabo san lucas,MX,22.89,-109.91,95.0,43,40,18.34,1595287041
550,boras,SE,57.72,12.94,53.6,87,0,10.29,1595287326
