City_ID_No.,City,Country,Lat.,Long.,Temperature,Humidity,Cloudiness,Wind Speed,Date
0,narsaq,GL,60.92,-46.05,57.2,44,33,8.05,1595201449
1,busselton,AU,-33.65,115.33,46.99,77,43,7.2,1595201333
2,kruisfontein,ZA,-34.0,24.73,53.24,39,0,6.08,1595201451
3,flin flon,CA,54.77,-101.86,73.4,38,20,4.7,1595201421
4,port alfred,ZA,-33.59,26.89,60.26,62,0,6.55,1595201452
5,olafsvik,IS,64.89,-23.71,48.2,79,31,8.05,1595201454
6,athmallik,IN,20.72,84.53,80.8,83,100,1.74,1595201457
7,zhigansk,RU,66.77,123.37,63.54,62,100,6.11,1595201458
8,butaritari,KI,3.07,172.79,83.44,77,75,15.3,1595201302
9,ballinasloe,IE,53.33,-8.22,44.87,92,1,2.73,1595201462
10,albany,US,42.6,-73.97,93.0,54,50,4.36,1595201226
11,khatanga,RU,71.97,102.5,51.8,78,98,2.62,1595201339
12,porto novo,BJ,6.5,2.6,77.0,94,40,8.05,1595201391
13,ust-kut,RU,56.79,105.77,56.46,61,0,2.53,1595201467
14,norman wells,CA,65.28,-126.83,64.4,68,75,8.05,1595201468
15,rikitea,PF,-23.12,-134.97,68.68,65,49,12.3,1595201289
16,santa isabel,BR,-23.32,-46.22,64.4,77,0,3.36,1595201470
17,college,US,64.86,-147.8,73.0,52,75,3.36,1595201473
18,kattivakkam,IN,13.22,80.32,80.6,88,40,5.82,1595201474
19,naryan-mar,RU,67.67,53.09,53.91,80,39,6.96,1595201475
20,hobart,AU,-42.88,147.33,48.2,49,75,17.22,1595201003
21,naifaru,MV,5.44,73.37,80.24,82,100,24.74,1595201477
22,cayenne,GF,4.93,-52.33,80.6,83,85,3.36,1595201334
23,tiksi,RU,71.69,128.87,61.77,59,16,9.26,1595201310
24,faya,SA,18.39,42.45,73.4,31,75,28.86,1595201446
25,portland,US,45.52,-122.68,91.0,33,20,8.05,1595201343
26,hasaki,JP,35.73,140.83,78.01,94,75,5.82,1595201388
27,vaini,TO,-21.2,-175.2,68.0,100,90,9.17,1595201354
28,hermanus,ZA,-34.42,19.23,53.01,96,3,3.0,1595201305
29,catuday,PH,16.29,119.81,82.29,76,34,8.95,1595201486
30,saskylakh,RU,71.92,114.08,59.5,62,31,10.65,1595201471
31,cap-aux-meules,CA,47.38,-61.86,71.6,73,5,6.93,1595201488
32,buraydah,SA,26.33,43.98,95.0,23,6,10.29,1595201489
33,blagoevgrad,BG,42.02,23.1,60.01,84,5,5.01,1595201490
34,udachnyy,RU,66.42,112.4,53.6,100,90,8.95,1595201491
35,dunedin,NZ,-45.87,170.5,46.99,74,67,4.0,1595201283
36,ushuaia,AR,-54.8,-68.3,28.4,92,0,6.93,1595201309
37,klaksvik,FO,62.23,-6.59,50.0,87,100,10.29,1595201385
38,ovalle,CL,-30.6,-71.2,59.68,74,88,2.42,1595201210
39,longyearbyen,SJ,78.22,15.64,44.6,87,75,12.75,1595201406
40,east london,ZA,-33.02,27.91,59.92,65,0,7.52,1595201344
41,high rock,BS,26.62,-78.28,84.2,79,40,11.41,1595201500
42,szaszvar,HU,46.28,18.38,59.16,94,45,3.91,1595201501
43,phek,IN,25.67,94.5,63.72,100,100,2.19,1595201504
44,edwardsville,US,38.81,-89.95,89.01,84,75,5.82,1595201471
45,lebu,CL,-37.62,-73.65,51.49,90,1,12.59,1595201379
46,baruun-urt,MN,46.68,113.28,55.24,53,30,14.99,1595201507
47,henties bay,NA,-22.12,14.28,72.0,23,0,7.87,1595201343
48,port elizabeth,ZA,-33.92,25.57,53.6,93,0,3.36,1595201370
49,pevek,RU,69.7,170.31,47.25,58,0,5.28,1595201469
50,qaanaaq,GL,77.48,-69.36,47.7,69,98,2.28,1595201512
51,ponta do sol,PT,32.67,-17.1,71.6,64,20,6.93,1595201300
52,bethel,US,41.37,-73.41,86.0,62,1,10.29,1595201281
53,upernavik,GL,72.79,-56.15,49.46,54,64,7.4,1595201321
54,punta arenas,CL,-53.15,-70.92,35.6,69,75,6.93,1595201320
55,inhambane,MZ,-23.86,35.38,66.02,80,31,10.09,1595201517
56,nisia floresta,BR,-6.09,-35.21,77.0,94,20,3.36,1595201518
57,fortuna,US,40.6,-124.16,70.0,72,20,12.75,1595201495
58,toora-khem,RU,52.47,96.11,56.57,57,0,1.23,1595201522
59,nikolskoye,RU,59.7,30.79,62.6,77,16,4.47,1595201468
60,souillac,MU,-20.52,57.52,66.2,88,40,5.82,1595201362
61,salalah,OM,17.02,54.09,78.8,94,75,2.24,1595201368
62,avarua,CK,-21.21,-159.78,73.4,88,77,10.29,1595201319
63,madang,PG,-5.22,145.8,83.91,70,18,0.96,1595201527
64,mahebourg,MU,-20.41,57.7,66.2,88,40,5.82,1595201407
65,faanui,PF,-16.48,-151.75,77.2,83,67,20.36,1595201436
66,cape town,ZA,-33.93,18.42,59.0,93,75,9.17,1595201233
67,sur,OM,22.57,59.53,85.82,73,53,12.39,1595201531
68,alice town,BS,25.72,-79.3,83.64,78,0,16.69,1595201533
69,yellowknife,CA,62.46,-114.35,75.0,49,40,8.05,1595201534
70,mizan teferi,ET,6.98,35.58,58.15,86,83,2.68,1595201535
71,murgab,TM,37.5,61.97,80.6,32,0,7.87,1595201536
72,kitimat,CA,54.05,-128.65,73.0,60,69,1.99,1595201529
73,chuy,UY,-33.7,-53.46,66.38,84,96,7.34,1595201410
74,bluff,NZ,-46.6,168.33,39.0,83,75,3.0,1595201411
75,bardiyah,LY,31.76,25.09,72.73,87,0,11.21,1595201544
76,mataura,NZ,-46.19,168.86,39.0,83,90,3.0,1595201312
77,shieli,KZ,44.17,66.75,80.08,27,4,10.87,1595201546
78,ardakan,IR,32.31,54.02,82.4,17,20,4.7,1595201547
79,saint george,US,37.1,-113.58,107.01,7,1,16.11,1595201548
80,thompson,CA,55.74,-97.86,75.2,44,75,4.7,1595201297
81,mehamn,NO,71.04,27.85,52.16,84,100,5.1,1595201552
82,beringovskiy,RU,63.05,179.32,45.12,76,60,15.17,1595201553
83,yeniseysk,RU,58.45,92.17,56.23,96,99,6.62,1595201554
84,sola,VU,-13.88,167.55,82.4,78,75,6.93,1595201382
85,la asuncion,VE,11.03,-63.86,86.0,74,11,13.87,1595201492
86,toamasina,MG,-18.17,49.38,67.42,81,55,12.5,1595201580
87,half moon bay,US,37.46,-122.43,78.01,82,90,6.93,1595201480
88,kropotkin,RU,45.44,40.58,71.19,59,8,6.87,1595201582
89,dikson,RU,73.51,80.55,40.93,96,100,12.08,1595201311
90,leningradskiy,RU,69.38,178.42,42.08,69,49,8.05,1595201462
91,goderich,CA,43.75,-81.72,78.01,85,81,15.7,1595201504
92,cabo san lucas,MX,22.89,-109.91,93.2,38,20,21.92,1595201105
93,barrow,US,71.29,-156.79,37.4,74,75,11.41,1595201392
94,yucca valley,US,34.11,-116.43,98.01,15,0,8.01,1595201590
95,shizunai,JP,42.33,142.37,68.79,84,13,5.46,1595201591
96,kapaa,US,22.08,-159.32,84.2,74,75,16.11,1595201361
97,atuona,PF,-9.8,-139.03,79.57,74,15,14.83,1595201296
98,georgetown,MY,5.41,100.34,78.8,94,20,2.24,1595201372
99,banting,MY,2.82,101.5,77.0,94,20,2.82,1595201595
100,esperance,AU,-33.87,121.9,50.0,76,90,3.36,1595201596
101,bredasdorp,ZA,-34.53,20.04,57.2,93,4,1.12,1595201301
102,black river,JM,18.03,-77.85,86.0,74,40,3.36,1595201598
103,areosa,PT,41.72,-8.86,64.0,93,90,1.12,1595201600
104,aksarka,RU,66.56,67.8,48.52,79,28,7.78,1595201601
105,bengkulu,ID,-3.8,102.27,75.4,91,46,5.06,1595201371
106,miandrivazo,MG,-19.52,45.47,63.82,52,0,3.65,1595201603
107,san patricio,MX,19.22,-104.7,87.8,74,40,11.41,1595201604
108,sao gabriel da cachoeira,BR,-0.13,-67.09,74.32,96,88,1.54,1595201605
109,mata,PT,40.68,-7.46,55.99,85,0,1.21,1595201610
110,marawi,PH,8.0,124.29,77.0,87,89,5.01,1595201611
111,victoria,HK,22.29,114.16,84.0,83,100,8.01,1595201385
112,tainan,TW,22.99,120.21,82.4,74,20,4.7,1595201613
113,huarmey,PE,-10.07,-78.15,61.14,83,77,8.77,1595201505
114,lithakia,GR,37.72,20.83,73.4,60,0,8.05,1595201469
115,salme,NP,28.04,85.09,68.0,100,90,3.36,1595201616
116,soma,TR,39.19,27.61,75.2,83,0,5.59,1595201617
117,sistranda,NO,63.73,8.83,53.6,87,75,3.36,1595201619
118,castro,BR,-24.79,-50.01,57.25,91,18,3.8,1595201620
119,torbay,CA,47.67,-52.73,69.01,60,20,13.87,1595201360
120,cacapava do sul,BR,-30.51,-53.49,62.96,100,36,4.0,1595201622
121,dumai,ID,1.68,101.45,76.01,90,84,3.58,1595201623
122,ribeira grande,PT,38.52,-28.7,69.19,76,72,3.53,1595201477
123,arraial do cabo,BR,-22.97,-42.03,71.19,84,0,23.0,1595201306
124,denizli,TR,37.84,29.07,71.6,60,0,8.05,1595201550
125,whitehorse,CA,60.72,-135.05,68.0,45,75,16.11,1595201371
126,ilulissat,GL,69.22,-51.1,53.6,46,91,2.24,1595201163
127,axim,GH,4.87,-2.24,74.91,92,42,6.58,1595201633
128,gornyy,RU,55.12,83.91,64.04,87,58,3.98,1595201634
129,antsla,EE,57.83,26.54,61.0,93,69,1.12,1595201635
130,avera,US,33.19,-82.53,95.0,39,1,6.93,1595201636
131,nioro,GM,13.35,-15.75,77.83,82,73,8.46,1595201637
132,kodiak,US,57.79,-152.41,59.0,82,90,11.41,1595201349
133,saint-philippe,RE,-21.36,55.77,64.4,67,20,6.93,1595201288
134,plouzane,FR,48.38,-4.62,59.0,93,75,8.05,1595201641
135,dakar,SN,14.69,-17.44,82.4,83,75,2.24,1595201499
136,port augusta,AU,-32.5,137.77,50.0,71,90,1.66,1595201643
137,nome,US,64.5,-165.41,59.0,54,75,8.05,1595201394
138,solnechnyy,RU,50.72,136.63,77.86,66,98,3.67,1595201519
139,new norfolk,AU,-42.78,147.06,45.0,77,78,5.01,1595201324
140,lahat,ID,-3.8,103.53,72.88,90,31,1.9,1595201473
141,dudinka,RU,69.41,86.18,50.0,76,45,17.9,1595201648
142,puerto ayora,EC,-0.74,-90.35,71.01,90,96,4.0,1595201303
143,sarab,IR,38.61,44.99,78.06,50,0,1.81,1595201651
144,tasiilaq,GL,65.61,-37.64,48.2,81,0,5.82,1595201381
145,alexandria,EG,31.22,29.96,77.0,78,0,9.17,1595201653
146,lavrentiya,RU,65.58,-171.0,46.74,76,72,7.0,1595201654
147,hithadhoo,MV,-0.6,73.08,83.52,77,100,16.37,1595201298
148,yarada,IN,17.65,83.27,82.4,88,20,5.82,1595201656
149,centenario do sul,BR,-22.82,-51.6,65.61,64,0,8.99,1595201658
150,shache,CN,38.42,77.24,65.62,61,0,2.17,1595201659
151,qaqortoq,GL,60.72,-46.03,57.2,44,20,8.05,1595201661
152,kahului,US,20.89,-156.47,86.0,62,20,31.09,1595201394
153,kavieng,PG,-2.57,150.8,84.16,72,25,11.1,1595201465
154,mercedes,AR,-34.65,-59.43,64.0,91,63,2.3,1595201665
155,namatanai,PG,-3.67,152.43,85.23,60,1,6.22,1595201666
156,monte alegre,BR,-2.01,-54.07,80.2,66,35,3.27,1595201667
157,kaitangata,NZ,-46.28,169.85,41.0,82,98,2.21,1595201668
158,chokurdakh,RU,70.63,147.92,73.89,43,73,18.01,1595201443
159,viedma,AR,-40.81,-63.0,48.99,93,83,1.99,1595201424
160,komsomolskiy,UZ,40.43,71.72,75.2,36,16,9.17,1595201672
161,aliwal north,ZA,-30.69,26.71,39.56,67,0,1.34,1595201673
162,channel-port aux basques,CA,47.57,-59.14,60.49,87,37,4.16,1595201675
163,namibe,AO,-15.2,12.15,67.01,70,0,5.28,1595201676
164,ixtapa,MX,20.7,-105.2,87.01,79,40,9.17,1595201458
165,lardos,GR,36.09,28.02,75.99,83,0,11.41,1595201681
166,kabalo,CD,-6.05,26.92,64.71,44,0,3.67,1595201682
167,mahanoro,MG,-19.9,48.8,62.55,82,45,7.27,1595201683
168,orahovac,XK,42.4,20.65,60.8,77,75,3.36,1595201684
169,hilo,US,19.73,-155.09,82.4,69,75,14.99,1595201301
170,chaykovskaya,RU,58.13,55.54,62.6,100,98,4.47,1595201686
171,boutersem,BE,50.83,4.83,64.0,88,85,5.82,1595201687
172,quatre cocos,MU,-20.21,57.76,66.2,88,40,5.82,1595201689
173,geraldton,AU,-28.77,114.6,46.4,87,0,5.82,1595201457
174,west bay,KY,19.37,-81.42,86.0,79,40,7.76,1595201692
175,lorengau,PG,-2.02,147.27,84.61,68,80,10.33,1595201491
176,roma,US,43.21,-75.46,84.2,54,1,9.17,1595201694
177,meulaboh,ID,4.14,96.13,78.35,84,95,4.36,1595201466
178,jumla,NP,29.27,82.18,62.06,69,97,1.9,1595201401
179,mana,GF,5.66,-53.78,79.05,83,88,9.51,1595201697
180,cherskiy,RU,68.75,161.3,71.44,43,0,5.91,1595201330
181,lompoc,US,34.64,-120.46,70.0,64,6,18.34,1595201248
182,malko tarnovo,BG,41.98,27.53,73.4,64,75,12.75,1595201700
183,kalmunai,LK,7.42,81.82,80.19,79,94,5.14,1595201702
184,berdigestyakh,RU,62.1,126.7,75.9,74,54,10.29,1595201703
185,ushtobe,KZ,45.25,77.98,74.77,33,32,7.2,1595201566
186,nanortalik,GL,60.14,-45.24,48.94,75,3,7.18,1595201337
187,iqaluit,CA,63.75,-68.51,42.8,93,90,5.82,1595201706
188,kununurra,AU,-15.77,128.73,62.6,24,0,6.04,1595201707
189,yatou,CN,37.15,122.38,73.26,85,86,10.85,1595201708
190,juegang,CN,32.32,121.19,73.47,96,98,2.06,1595201594
191,rawson,AR,-43.3,-65.1,45.84,81,100,11.27,1595201446
192,alcantara,BR,-2.41,-44.41,80.6,83,34,8.05,1595201715
193,seddon,AU,-37.81,144.89,52.0,76,27,9.17,1595201716
194,vidim,RU,56.41,103.11,54.5,62,26,2.51,1595201717
195,severo-kurilsk,RU,50.68,156.12,51.96,87,100,11.56,1595201345
196,katangli,RU,51.71,143.23,56.3,89,100,9.13,1595201719
197,jamestown,US,42.1,-79.24,75.0,100,40,11.41,1595201721
198,clyde river,CA,70.47,-68.59,44.6,81,20,8.05,1595201722
199,akureyri,IS,65.68,-18.09,46.4,81,40,8.05,1595201723
200,puksoozero,RU,62.59,40.61,53.02,66,0,2.95,1595201724
201,bubaque,GW,11.28,-15.83,80.02,83,100,16.98,1595201726
202,kautokeino,NO,69.01,23.04,54.59,93,95,4.81,1595201727
203,ruidoso,US,33.33,-105.67,80.01,33,1,8.05,1595201728
204,arkhara,RU,49.42,130.08,66.88,73,100,8.59,1595201730
205,south berwick,US,43.23,-70.81,90.0,52,1,9.95,1595201732
206,eureka,US,40.8,-124.16,66.99,81,12,3.0,1595201602
207,san carlos de bariloche,AR,-41.15,-71.31,39.2,86,75,2.86,1595201735
208,port hardy,CA,50.7,-127.42,66.2,63,20,21.92,1595201508
209,luderitz,NA,-26.65,15.16,69.8,27,0,11.41,1595201486
210,dezhou,CN,37.45,116.29,81.37,50,0,7.9,1595201738
211,balsas,BR,-7.53,-46.04,76.87,44,79,4.21,1595201478
212,isangel,VU,-19.55,169.27,75.2,73,40,5.82,1595201740
213,kalloni,GR,39.23,26.21,75.2,69,0,2.24,1595201742
214,leh,IN,34.17,77.58,52.83,55,82,4.83,1595201487
215,tomatlan,MX,19.93,-105.25,87.37,66,1,8.9,1595201744
216,guerrero negro,MX,27.98,-114.06,75.49,68,4,18.32,1595201745
217,kieta,PG,-6.22,155.63,85.32,64,0,5.61,1595201746
218,halifax,CA,44.65,-63.57,68.0,88,100,1.01,1595201500
219,lagoa,PT,39.05,-27.98,68.99,79,27,5.23,1595201503
220,alice springs,AU,-23.7,133.88,48.2,57,55,15.46,1595201543
221,bambous virieux,MU,-20.34,57.76,66.2,88,40,5.82,1595201369
222,omboue,GA,-1.57,9.26,73.26,82,100,6.73,1595201752
223,sakakah,SA,29.97,40.21,89.6,11,0,11.41,1595201497
224,takaka,NZ,-40.85,172.8,55.0,78,33,7.0,1595201652
225,lensk,RU,60.73,114.93,54.59,92,100,6.8,1595201755
226,hobyo,SO,5.35,48.53,76.96,73,86,22.39,1595201756
227,belaya gora,RU,68.53,146.42,76.75,37,54,16.44,1595201492
228,great bend,US,38.36,-98.76,90.0,59,1,10.29,1595201528
229,sisimiut,GL,66.94,-53.67,52.39,73,82,5.01,1595201759
230,srednekolymsk,RU,67.45,153.68,75.52,37,0,12.53,1595201512
231,cruz grande,MX,16.73,-99.13,87.8,74,75,5.82,1595201762
232,korla,CN,41.76,86.15,75.99,90,100,1.99,1595201764
233,yumbel,CL,-37.08,-72.57,53.6,100,75,6.93,1595201765
234,tecoanapa,MX,16.52,-98.75,85.46,71,33,9.35,1595201766
235,patea,NZ,-39.76,174.48,60.01,76,39,1.01,1595201767
236,tura,IN,25.52,90.22,73.81,99,100,7.56,1595201772
237,chara,RU,56.91,118.26,56.84,82,100,0.76,1595201773
238,poltava,UA,49.59,34.54,60.44,80,16,6.11,1595201774
239,moron,AR,-34.65,-58.62,66.2,82,83,4.7,1595201775
240,puerto leguizamo,CO,-0.19,-74.78,73.04,96,28,1.99,1595201776
241,sambava,MG,-14.27,50.17,68.88,79,40,17.54,1595201777
242,tibati,CM,6.47,12.63,66.13,97,100,3.11,1595201778
243,tabou,CI,4.42,-7.35,75.36,91,83,8.32,1595201779
244,yaan,NG,7.38,8.57,71.28,99,81,5.17,1595201780
245,ulstrup,DK,56.39,9.79,57.0,73,80,7.0,1595201783
246,yulara,AU,-25.24,130.99,53.6,71,90,8.05,1595201784
247,soavinandriana,MG,-19.17,46.73,40.19,91,0,5.01,1595201785
248,sooke,CA,48.37,-123.73,77.0,77,40,6.93,1595201730
249,nouadhibou,MR,20.93,-17.03,71.6,88,23,9.17,1595201584
250,issoire,FR,45.55,3.25,64.4,59,0,1.12,1595201788
251,laguna,US,38.42,-121.42,91.4,31,1,13.87,1595201789
252,sokolo,ML,14.73,-6.12,82.53,59,47,3.44,1595201791
253,la ronge,CA,55.1,-105.28,66.2,72,75,6.93,1595201792
254,solton,RU,52.84,86.48,59.52,80,31,4.34,1595201793
255,baikunthpur,IN,23.25,82.55,76.6,86,100,4.16,1595201794
256,ulaangom,MN,49.98,92.07,72.3,48,0,1.77,1595201795
257,san cristobal,VE,7.77,-72.22,91.4,43,20,11.41,1595201506
258,george,ZA,-33.96,22.46,48.2,93,0,4.7,1595201797
259,codrington,AU,-38.27,141.97,51.35,76,72,15.41,1595201293
260,mar del plata,AR,-38.0,-57.56,52.0,93,75,12.75,1595201317
261,sitka,US,57.05,-135.33,55.4,93,90,8.05,1595201361
262,berlevag,NO,70.86,29.09,52.23,87,100,7.54,1595201609
263,praia da vitoria,PT,38.73,-27.07,69.8,73,75,5.99,1595201803
264,tuatapere,NZ,-46.13,167.68,39.0,83,96,3.0,1595201383
265,gornopravdinsk,RU,60.05,69.9,56.37,81,0,7.92,1595201806
266,katsuura,JP,35.13,140.3,80.01,94,75,3.36,1595201807
267,ust-kuyga,RU,70.02,135.6,64.63,70,100,2.06,1595201809
268,neenah,US,44.19,-88.46,81.0,31,40,13.87,1595201812
269,hamilton,US,39.18,-84.53,73.4,100,40,13.87,1595201723
270,mecca,SA,21.43,39.83,86.65,28,45,1.01,1595201814
271,grand-lahou,CI,5.14,-5.02,75.4,91,100,9.01,1595201815
272,waingapu,ID,-9.66,120.26,77.36,73,27,11.63,1595201816
273,valparaiso,CL,-33.04,-71.63,55.4,100,75,3.36,1595201817
274,iquitos,PE,-3.75,-73.25,80.6,83,40,5.82,1595201818
275,sassandra,CI,4.95,-6.08,74.84,91,100,7.0,1595201819
276,aklavik,CA,68.22,-135.01,48.2,76,75,5.82,1595201749
277,maxixe,MZ,-23.86,35.35,65.12,82,27,8.75,1595201822
278,urengoy,RU,65.97,78.37,53.17,82,100,15.14,1595201823
279,kuruman,ZA,-27.45,23.43,37.99,39,0,7.34,1595201824
280,mancio lima,BR,-7.61,-72.9,78.3,67,48,1.16,1595201825
281,freeport,US,40.66,-73.58,84.0,74,1,12.75,1595201718
282,platanos,GR,37.67,21.62,73.4,60,0,8.05,1595201827
283,alofi,NU,-19.06,-169.92,80.6,74,96,10.29,1595201828
284,mazatlan,MX,23.22,-106.42,91.4,55,20,11.41,1595201656
285,gat,IL,31.61,34.76,78.01,68,0,0.81,1595201830
286,cidreira,BR,-30.18,-50.21,66.18,80,56,8.77,1595201832
287,novoagansk,RU,61.94,76.66,57.52,85,83,13.51,1595201834
288,hualmay,PE,-11.1,-77.61,60.08,85,40,9.57,1595201742
289,provideniya,RU,64.38,-173.3,53.6,66,75,11.18,1595201837
290,naze,JP,28.37,129.48,86.0,79,75,12.75,1595201838
291,verkh-usugli,RU,52.7,115.17,51.96,81,100,8.1,1595201839
292,champasak,LA,14.75,106.0,75.36,97,100,2.19,1595201840
293,saldanha,ZA,-33.01,17.94,48.2,87,0,4.7,1595201842
294,trincomalee,LK,8.57,81.23,80.91,78,99,5.64,1595201843
295,deputatskiy,RU,69.3,139.9,61.48,62,100,2.93,1595201403
296,barcelos,PT,41.54,-8.62,66.99,93,90,1.12,1595201759
297,bugiri,UG,0.57,33.74,62.11,74,59,3.83,1595201848
298,igrim,RU,63.19,64.42,51.35,74,0,9.84,1595201608
299,haines junction,CA,60.75,-137.51,65.59,45,100,11.74,1595201776
300,camopi,GF,3.17,-52.32,73.06,96,93,2.17,1595201592
301,kaili,ID,-3.46,120.21,70.2,94,95,1.21,1595201853
302,calabozo,VE,8.92,-67.43,77.2,91,98,0.85,1595201342
303,big rapids,US,43.7,-85.48,79.0,57,1,6.93,1595201855
304,saint anthony,US,45.02,-93.22,82.4,39,1,19.46,1595201408
305,linjiang,CN,41.81,126.91,65.98,89,100,1.36,1595201857
306,ola,RU,59.58,151.28,62.58,60,1,4.94,1595201858
307,oktyabrskoye,RU,43.06,44.74,68.0,94,0,4.47,1595201859
308,havoysund,NO,71.0,24.66,53.6,81,75,5.82,1595201860
309,kaeo,NZ,-35.1,173.78,60.01,3,75,1.99,1595201861
310,vila velha,BR,-20.33,-40.29,69.8,88,25,3.36,1595201863
311,corinto,GR,37.94,22.96,75.99,57,0,1.01,1595201864
312,kamalapuram,IN,14.58,78.65,81.79,73,100,5.91,1595201865
313,carnarvon,AU,-24.87,113.63,48.2,87,0,9.17,1595201867
314,egvekinot,RU,66.32,-179.17,49.89,54,0,5.35,1595201868
315,abu kamal,SY,34.45,40.92,82.44,19,0,3.36,1595201869
316,hami,CN,42.8,93.45,87.3,17,79,8.1,1595201870
317,muroto,JP,33.28,134.15,80.6,78,75,4.7,1595201871
318,emba,KZ,48.83,58.14,74.34,46,0,7.29,1595201872
319,chaykovskiy,RU,56.77,54.11,64.0,92,93,5.01,1595201874
320,fort nelson,CA,58.81,-122.7,75.2,41,75,12.75,1595201875
321,progreso,MX,21.28,-89.67,78.01,94,75,5.82,1595201876
322,tuktoyaktuk,CA,69.45,-133.04,46.4,75,40,4.7,1595201400
323,waddan,LY,29.16,16.14,76.73,56,0,11.56,1595201878
324,mandiana,GN,10.63,-8.68,72.48,93,74,4.09,1595201879
325,moba,CN,33.23,105.02,59.05,87,58,3.62,1595201880
326,taltal,CL,-25.4,-70.48,57.47,73,66,3.0,1595201881
327,askino,RU,56.09,56.58,63.55,96,92,5.1,1595201882
328,marevo,RU,57.31,32.08,56.39,92,97,1.92,1595201884
329,mount gambier,AU,-37.83,140.77,48.2,93,75,8.05,1595201846
330,hirara,JP,24.8,125.28,86.0,79,20,10.29,1595201886
331,kulhudhuffushi,MV,6.62,73.07,81.57,81,100,25.46,1595201887
332,pemangkat,ID,1.17,108.97,76.62,84,81,5.41,1595201759
333,stokmarknes,NO,68.56,14.91,51.01,90,86,1.99,1595201890
334,bilibino,RU,68.05,166.44,67.64,38,0,1.19,1595201195
335,vardo,NO,70.37,31.11,53.38,94,100,11.45,1595201894
336,adilcevaz,TR,38.8,42.73,62.6,59,20,2.24,1595201895
337,cordoba,AR,-31.41,-64.18,57.0,87,75,3.36,1595201896
338,lucea,JM,18.45,-78.17,86.0,74,40,3.36,1595201897
339,samarai,PG,-10.62,150.67,76.19,86,100,14.85,1595201898
340,awbari,LY,26.59,12.78,87.31,24,23,15.28,1595201752
341,kano,NG,12.0,8.52,77.0,88,20,6.93,1595201902
342,koungou,YT,-12.73,45.2,77.0,65,40,21.92,1595201904
343,agustin codazzi,CO,10.03,-73.24,83.19,67,100,3.53,1595201699
344,richards bay,ZA,-28.78,32.04,57.63,84,0,5.06,1595201906
345,salisbury,GB,51.07,-1.8,57.2,71,7,12.75,1595201907
346,constantine,DZ,36.37,6.61,68.0,72,0,3.36,1595201908
347,poum,NC,-20.23,164.02,71.92,65,39,12.93,1595201909
348,pa sang,TH,18.53,98.94,77.0,94,20,3.36,1595201910
349,sept-iles,CA,50.2,-66.38,71.6,64,75,5.82,1595201911
350,mahmudabad,IN,27.3,81.12,82.4,88,90,9.86,1595201912
351,ancud,CL,-41.87,-73.82,48.99,100,20,5.82,1595201888
352,almansa,ES,38.87,-1.1,75.99,82,46,1.01,1595201915
353,jijiga,ET,9.35,42.8,60.57,78,54,21.88,1595201916
354,hofn,IS,64.25,-15.21,54.34,62,59,5.26,1595201917
355,metro,ID,-5.11,105.31,76.15,89,3,3.11,1595201918
356,broome,US,42.25,-75.83,75.0,83,20,8.05,1595201341
357,annau,TM,37.89,58.52,91.4,22,75,18.34,1595201920
358,sol-iletsk,RU,51.16,54.99,65.91,72,0,5.73,1595201921
359,tatarsk,RU,55.22,75.98,67.01,92,69,5.82,1595201922
360,kyren,RU,51.68,102.14,55.18,65,9,0.94,1595201923
361,marsa matruh,EG,31.35,27.25,75.2,78,20,7.76,1595201925
362,bend,US,44.06,-121.32,91.4,14,1,6.93,1595201926
363,bac lieu,VN,9.29,105.72,82.09,75,98,0.76,1595201927
364,kamenka,RU,51.32,42.77,59.0,87,0,3.74,1595201928
365,miechow,PL,50.36,20.03,62.01,93,86,2.24,1595201929
366,skovorodino,RU,53.98,123.92,64.02,93,99,12.57,1595201930
367,khani,GE,41.96,42.96,75.2,88,90,2.24,1595201932
368,aykhal,RU,66.0,111.5,53.6,100,90,8.95,1595201934
369,soure,BR,-0.72,-48.52,79.47,82,99,12.44,1595201935
370,ust-maya,RU,60.42,134.53,79.84,59,6,8.93,1595201936
371,salinopolis,BR,-0.61,-47.36,78.49,84,41,12.41,1595201937
372,vila,PT,42.03,-8.16,66.99,85,0,3.42,1595201938
373,litovko,RU,49.24,135.17,74.55,87,100,6.24,1595201939
374,cabedelo,BR,-6.98,-34.83,75.2,94,75,9.17,1595201940
375,airai,TL,-8.93,125.41,63.59,52,17,3.02,1595201941
376,ishigaki,JP,24.34,124.16,86.0,84,75,11.41,1595201942
377,kenora,CA,49.82,-94.43,68.0,45,75,16.11,1595201944
378,kodinsk,RU,58.69,99.18,55.65,60,87,2.48,1595201751
379,kutum,SD,14.2,24.67,74.68,62,95,11.3,1595201946
380,jalcocotan,MX,21.47,-105.12,80.6,65,75,4.7,1595201649
381,great yarmouth,GB,52.61,1.73,51.01,99,0,7.02,1595201732
382,gayeri,BF,12.65,0.49,77.59,73,41,5.23,1595201949
383,camacha,PT,33.08,-16.33,69.8,83,40,9.17,1595201950
384,abnub,EG,27.27,31.15,80.6,44,3,6.93,1595201951
385,zaoyang,CN,32.13,112.75,75.13,81,64,2.48,1595201954
386,taunggyi,MM,20.78,97.03,64.49,100,100,3.85,1595201955
387,chukhloma,RU,58.75,42.68,59.09,98,100,4.38,1595201956
388,taoudenni,ML,22.68,-3.98,101.7,15,39,8.59,1595201957
389,lasa,IT,46.62,10.7,59.0,82,20,3.36,1595201958
390,malanje,AO,-9.54,16.34,54.37,41,0,4.23,1595201959
391,gazanjyk,TM,39.24,55.52,84.24,29,0,2.01,1595201953
392,mogadishu,SO,2.04,45.34,77.14,77,98,20.98,1595201962
393,liverpool,GB,53.41,-2.98,55.99,76,18,5.82,1595201703
394,kavaratti,IN,10.57,72.64,81.32,79,100,13.78,1595201964
395,pisco,PE,-13.7,-76.22,63.0,77,20,14.99,1595201396
396,presidencia roque saenz pena,AR,-26.79,-60.44,76.42,50,74,7.7,1595201945
397,kayasula,RU,44.33,45.0,75.79,62,0,5.59,1595201967
398,pitimbu,BR,-7.47,-34.81,75.2,94,75,9.17,1595201954
399,freetown,SL,8.48,-13.23,76.12,89,100,10.04,1595201969
400,pangai,TO,-19.8,-174.35,71.6,88,75,16.11,1595201971
401,zhongshu,CN,24.52,103.77,64.4,94,100,2.46,1595201972
402,kuytun,RU,54.34,101.5,52.54,69,23,3.67,1595201973
403,vostok,RU,46.49,135.88,76.24,47,99,3.62,1595201974
404,okhotsk,RU,59.38,143.3,60.8,81,74,7.18,1595201975
405,vuktyl,RU,63.86,57.31,51.71,81,6,6.44,1595201976
406,marzuq,YE,14.4,46.47,77.9,47,23,1.99,1595201977
407,natchitoches,US,31.77,-93.13,95.0,47,1,8.05,1595201978
408,baft,IR,29.23,56.61,67.62,24,0,7.4,1595201980
409,valdivia,CL,-39.81,-73.25,50.0,100,90,4.7,1595201768
410,bandarbeyla,SO,9.49,50.81,79.54,63,76,23.0,1595201858
411,honiara,SB,-9.43,159.95,87.8,58,40,4.7,1595201983
412,port-cartier,CA,50.03,-66.87,71.6,64,75,5.82,1595201984
413,te anau,NZ,-45.42,167.72,44.4,90,100,1.1,1595201985
414,kraskino,RU,42.71,130.78,66.72,95,100,17.02,1595201986
415,santa maria,BR,-29.68,-53.81,73.4,69,64,5.82,1595201987
416,strezhevoy,RU,60.73,77.59,60.8,82,75,8.95,1595201989
417,clinton,US,42.59,-82.92,81.0,94,90,13.87,1595201920
418,amazar,RU,53.86,120.88,62.69,89,98,3.11,1595201991
419,adrar,MR,20.5,-10.07,94.64,22,29,5.73,1595201992
420,grindavik,IS,63.84,-22.43,48.2,87,75,4.7,1595201993
421,coquimbo,CL,-29.95,-71.34,53.6,93,99,4.7,1595201820
422,gelsenkirchen,DE,51.52,7.05,68.0,70,66,6.69,1595201995
423,wanxian,CN,30.8,108.39,78.58,77,100,2.98,1595201893
424,tabas,IR,33.6,56.92,91.4,14,0,4.7,1595201997
425,mombetsu,JP,44.35,143.35,73.0,74,0,3.0,1595201999
426,inirida,CO,3.87,-67.92,75.24,94,91,1.54,1595202000
427,trairi,BR,-3.28,-39.27,77.18,79,35,10.0,1595202001
428,dwarka,IN,22.24,68.97,84.22,80,52,18.92,1595201947
429,mirabad,AF,30.44,61.84,83.01,15,0,16.55,1595202003
430,opuwo,NA,-18.06,13.84,52.61,43,0,9.51,1595202005
431,saint-joseph,RE,-21.37,55.62,62.6,67,20,6.93,1595202006
432,kurumkan,RU,54.3,110.3,56.79,60,97,3.49,1595202007
433,bam,IR,29.11,58.36,80.74,15,0,12.12,1595202009
434,molln,DE,53.63,10.68,63.0,80,53,4.88,1595202010
435,sandviken,SE,60.62,16.77,64.99,67,79,1.01,1595202013
436,awjilah,LY,29.11,21.29,78.84,44,23,12.17,1595202014
437,winslow,US,35.02,-110.7,98.6,9,1,4.7,1595202015
438,comodoro rivadavia,AR,-45.87,-67.5,42.8,87,90,9.17,1595201892
439,wajima,JP,37.4,136.9,75.2,88,75,3.36,1595202018
440,yaviza,PA,8.15,-77.69,77.36,92,100,1.36,1595202019
441,sinnamary,GF,5.38,-52.95,78.91,82,87,9.15,1595202020
442,thinadhoo,MV,0.53,72.93,83.93,75,100,18.9,1595201788
443,saryozek,KZ,44.36,77.98,70.63,37,19,8.39,1595202023
444,mbigou,GA,-1.9,11.91,66.2,97,74,4.43,1595202025
445,isiro,CD,2.77,27.62,65.75,97,96,0.47,1595202026
446,nizhniy kuranakh,RU,58.84,125.49,70.32,79,100,3.49,1595202027
447,vestmannaeyjar,IS,63.44,-20.27,49.57,82,28,8.81,1595202028
448,sayyan,YE,15.17,44.32,61.38,65,75,3.31,1595202030
449,hohhot,CN,40.81,111.65,62.6,72,0,4.47,1595202031
450,turayf,SA,31.67,38.66,86.0,19,0,14.99,1595202032
451,washington,US,47.5,-120.5,91.4,21,1,5.82,1595202033
452,tawau,MY,4.25,117.89,77.0,88,20,4.7,1595202034
453,palo alto,US,37.44,-122.14,78.01,53,20,12.75,1595201963
454,kudahuvadhoo,MV,2.67,72.89,82.6,78,100,20.56,1595201902
455,boundiali,CI,9.52,-6.49,72.05,88,66,3.18,1595201979
456,patacamaya,BO,-17.23,-67.92,48.67,49,0,4.34,1595202040
457,afsin,TR,38.25,36.91,68.2,57,0,0.74,1595202041
458,booue,GA,-0.09,11.94,71.87,92,95,3.71,1595202042
459,terrace,CA,54.52,-128.6,75.2,47,40,8.05,1595201915
460,ambanja,MG,-13.68,48.45,66.7,66,9,3.94,1595202044
461,teya,RU,60.38,92.63,55.76,80,100,2.08,1595202045
462,ballina,AU,-28.87,153.57,64.4,59,0,8.05,1595202046
463,karratha,AU,-20.74,116.85,63.03,65,1,16.2,1595201869
464,morondava,MG,-20.28,44.28,67.6,58,0,13.0,1595201903
465,torrington,US,41.8,-73.12,86.0,72,34,1.01,1595202005
466,bowling green,US,36.99,-86.44,91.4,52,1,11.41,1595202051
467,saryagash,KZ,41.45,69.17,77.0,38,0,9.17,1595202052
468,narasannapeta,IN,18.42,84.05,81.86,85,100,9.66,1595202053
469,zhanakorgan,KZ,43.91,67.25,78.37,27,12,6.51,1595202055
470,vao,NC,-22.67,167.48,69.37,68,20,14.18,1595202056
471,margate,GB,51.38,1.39,60.01,63,35,3.0,1595202057
472,la paz,BO,-16.5,-68.15,48.2,29,3,5.82,1595202059
473,caarapo,BR,-22.63,-54.82,69.15,54,0,8.9,1595202060
474,sobolevo,RU,54.43,31.9,55.04,90,27,3.51,1595202061
475,la rioja,ES,42.25,-2.5,75.2,64,0,3.36,1595202062
476,berdavan,AM,41.2,45.0,78.8,61,0,5.06,1595202063
477,morris,US,40.83,-74.53,93.2,49,5,9.17,1595202021
478,mandalgovi,MN,45.76,106.27,61.05,39,95,7.02,1595202066
479,colac,AU,-38.33,143.58,45.0,97,78,10.16,1595202067
480,quang ngai,VN,15.12,108.8,82.35,74,94,4.5,1595201934
481,aksha,RU,50.28,113.29,54.27,60,46,12.73,1595202070
482,upata,VE,8.01,-62.4,72.63,95,71,3.76,1595202071
483,veraval,IN,20.9,70.37,83.41,82,99,14.56,1595202072
484,coria,ES,39.99,-6.54,78.01,37,0,1.01,1595202074
485,kiama,AU,-34.68,150.87,55.99,53,0,10.0,1595202076
486,erdenet,MN,49.03,104.08,52.12,77,35,3.51,1595202077
487,monrovia,LR,6.3,-10.8,77.0,94,75,11.59,1595201779
488,jaca,ES,42.57,-0.55,73.0,76,9,3.33,1595202079
489,san ramon de la nueva oran,AR,-23.13,-64.33,73.0,81,17,5.99,1595202080
490,rio cauto,CU,20.56,-76.92,82.4,83,75,2.24,1595202081
491,synya,RU,65.37,58.04,49.64,94,5,1.01,1595202083
492,panjab,AF,34.39,67.02,53.08,43,0,5.93,1595202084
493,yinchuan,CN,38.47,106.27,76.87,29,78,7.29,1595202085
494,sao joao da barra,BR,-21.64,-41.05,70.5,88,0,11.07,1595202052
495,muscat,OM,23.61,58.59,86.0,84,37,5.82,1595202087
496,jiaojiang,CN,28.68,121.44,84.99,88,98,8.66,1595202088
497,tazovskiy,RU,67.47,78.7,49.44,78,36,13.42,1595202089
498,necochea,AR,-38.55,-58.74,52.0,95,77,4.0,1595201863
499,san borja,BO,-14.82,-66.85,78.44,63,51,2.44,1595202091
500,jiamusi,CN,46.83,130.35,61.99,94,100,15.35,1595202092
501,pechora,RU,65.15,57.22,50.67,92,2,0.74,1595202095
502,shenjiamen,CN,29.96,122.3,78.1,93,99,4.99,1595202096
503,sawang daen din,TH,17.48,103.46,79.18,86,100,2.93,1595202097
504,amnat charoen,TH,15.86,104.63,79.68,83,100,5.64,1595202098
505,yar-sale,RU,66.83,70.83,50.92,77,0,8.81,1595202099
506,winchester,GB,51.07,-1.32,57.2,62,4,11.41,1595202100
507,haapiti,PF,-17.57,-149.87,82.4,61,75,5.82,1595202101
508,nokaneng,BW,-19.67,22.27,50.13,48,0,5.39,1595202102
509,qui nhon,VN,13.77,109.23,81.19,78,100,3.51,1595201966
510,ostrovnoy,RU,68.05,39.51,61.38,72,0,14.0,1595202105
511,guangshui,CN,31.62,114.0,75.09,81,76,1.5,1595202106
512,kamaishi,JP,39.27,141.88,73.4,83,40,2.24,1595202107
513,alekseyevka,RU,50.63,38.69,58.68,89,47,3.36,1595202108
514,gondar,ET,12.6,37.47,56.77,100,100,2.62,1595202109
515,ahuimanu,US,21.44,-157.84,87.8,62,90,17.22,1595202110
516,san luis,AR,-33.3,-66.34,53.29,80,19,11.14,1595201941
517,the valley,AI,18.22,-63.06,84.2,74,40,11.41,1595201898
518,nurota,UZ,40.56,65.69,77.0,25,0,2.24,1595202113
519,metapan,SV,14.33,-89.45,91.4,33,20,3.36,1595202115
520,buala,SB,-8.14,159.59,83.86,71,54,5.26,1595202117
521,shaoyang,CN,27.23,111.45,72.23,90,100,1.23,1595202118
522,soni,TZ,-4.85,38.37,54.36,100,7,4.32,1595202119
523,east chicago,US,41.64,-87.45,82.99,74,75,8.05,1595202120
524,blagoyevo,RU,63.37,47.92,51.33,87,0,3.87,1595202121
525,vila franca do campo,PT,37.72,-25.43,69.8,68,75,5.82,1595201980
526,cayeli,TR,41.09,40.73,75.0,71,0,1.97,1595202123
527,nador,MA,35.17,-2.93,77.0,78,0,4.7,1595202124
528,qasigiannguit,GL,68.82,-51.19,53.6,46,80,2.24,1595202126
529,jalpatagua,GT,14.14,-90.01,91.4,33,20,3.36,1595202127
530,svetlyy,RU,54.67,20.13,62.6,88,22,4.47,1595202129
531,sharkan,RU,57.3,53.87,64.0,92,79,5.01,1595202130
532,gewane,ET,10.17,40.65,79.36,49,25,18.14,1595202131
533,port blair,IN,11.67,92.75,80.71,78,99,2.59,1595201951
534,anori,BR,-3.77,-61.64,78.21,73,60,1.54,1595202134
535,casper,US,42.87,-106.31,93.2,7,1,17.22,1595201883
536,guane,CU,22.2,-84.09,78.1,86,100,4.03,1595202137
537,harper,LR,4.38,-7.72,75.85,89,91,9.42,1595202138
538,najran,SA,17.49,44.13,71.6,64,75,20.8,1595202139
539,paamiut,GL,61.99,-49.67,47.46,79,94,2.75,1595202142
540,road town,VG,18.42,-64.62,84.2,70,20,10.29,1595202143
541,lata,PT,40.16,-8.33,66.0,82,0,2.44,1595201900
542,manokwari,ID,-0.87,134.08,83.8,66,73,6.91,1595202146
543,westport,US,41.14,-73.36,84.2,62,1,9.17,1595201848
544,kabo,CF,7.7,18.63,68.59,97,96,1.45,1595202148
545,abha,SA,18.22,42.51,73.4,31,75,28.86,1595201958
546,barberton,ZA,-25.79,31.05,53.6,37,0,3.36,1595202152
547,lazaro cardenas,MX,17.96,-102.2,84.04,75,12,5.79,1595202153
548,sao filipe,CV,14.9,-24.5,77.09,83,82,7.9,1595202154
549,merauke,ID,-8.47,140.33,77.14,85,100,15.46,1595202156
550,chauk,MM,20.88,94.82,81.25,72,100,14.14,1595202157
551,mackay,AU,-21.15,149.2,69.01,87,90,5.82,1595202158
552,flinders,AU,-34.58,150.86,55.99,52,0,7.0,1595202159
553,kemijarvi,FI,66.71,27.43,55.92,85,85,6.4,1595202160
554,pula,HR,44.87,13.85,60.8,82,0,2.24,1595202161
555,balikpapan,ID,-1.27,116.83,75.2,100,75,7.49,1595202162
556,tobetsu,JP,43.22,141.52,79.0,83,75,3.36,1595202163
557,lerwick,GB,60.15,-1.15,50.0,93,10,4.7,1595202164
558,lebanon,US,36.21,-86.29,93.2,41,1,9.17,1595202165
559,dingle,PH,11.0,122.67,81.93,79,54,3.91,1595202167
560,acapulco,MX,16.86,-99.89,87.8,74,75,5.82,1595201920
561,dourbali,TD,11.81,15.86,72.9,83,89,17.02,1595202169
562,chickasha,US,35.05,-97.94,95.0,41,1,13.87,1595202170
563,salina,US,38.84,-97.61,91.99,46,20,8.05,1595201960
